{
  "records": [
    {
      "timestamp": "2025-12-21T08:55:24.672520",
      "location": {
        "lat": 33.6844,
        "lon": 73.0479,
        "name": "Islamabad"
      },
      "weather": {
        "rainfall_1h": 0,
        "rainfall_3h": 0,
        "humidity": 0,
        "temperature": 0,
        "pressure": 1013,
        "wind_speed": 0,
        "cloud_cover": 0
      },
      "flood_status": "Safe",
      "risk_score": 0
    },
    {
      "timestamp": "2025-12-21T08:55:26.355311",
      "location": {
        "lat": 31.5497,
        "lon": 74.3436,
        "name": "Lahore"
      },
      "weather": {
        "rainfall_1h": 0,
        "rainfall_3h": 0,
        "humidity": 0,
        "temperature": 0,
        "pressure": 1013,
        "wind_speed": 0,
        "cloud_cover": 0
      },
      "flood_status": "Safe",
      "risk_score": 0
    },
    {
      "timestamp": "2025-12-21T08:55:28.019995",
      "location": {
        "lat": 24.8607,
        "lon": 67.0011,
        "name": "Karachi"
      },
      "weather": {
        "rainfall_1h": 0,
        "rainfall_3h": 0,
        "humidity": 0,
        "temperature": 0,
        "pressure": 1013,
        "wind_speed": 0,
        "cloud_cover": 0
      },
      "flood_status": "Safe",
      "risk_score": 0
    },
    {
      "timestamp": "2025-12-21T08:55:29.664520",
      "location": {
        "lat": 34.0151,
        "lon": 71.5249,
        "name": "Peshawar"
      },
      "weather": {
        "rainfall_1h": 0,
        "rainfall_3h": 0,
        "humidity": 0,
        "temperature": 0,
        "pressure": 1013,
        "wind_speed": 0,
        "cloud_cover": 0
      },
      "flood_status": "Safe",
      "risk_score": 0
    },
    {
      "timestamp": "2025-12-21T08:55:31.383086",
      "location": {
        "lat": 30.1575,
        "lon": 71.5249,
        "name": "Multan"
      },
      "weather": {
        "rainfall_1h": 0,
        "rainfall_3h": 0,
        "humidity": 0,
        "temperature": 0,
        "pressure": 1013,
        "wind_speed": 0,
        "cloud_cover": 0
      },
      "flood_status": "Safe",
      "risk_score": 0
    },
    {
      "timestamp": "2025-12-21T08:55:33.038544",
      "location": {
        "lat": 33.5651,
        "lon": 73.0169,
        "name": "Rawalpindi"
      },
      "weather": {
        "rainfall_1h": 0,
        "rainfall_3h": 0,
        "humidity": 0,
        "temperature": 0,
        "pressure": 1013,
        "wind_speed": 0,
        "cloud_cover": 0
      },
      "flood_status": "Safe",
      "risk_score": 0
    },
    {
      "timestamp": "2025-12-21T08:55:34.728320",
      "location": {
        "lat": 31.4504,
        "lon": 73.135,
        "name": "Faisalabad"
      },
      "weather": {
        "rainfall_1h": 0,
        "rainfall_3h": 0,
        "humidity": 0,
        "temperature": 0,
        "pressure": 1013,
        "wind_speed": 0,
        "cloud_cover": 0
      },
      "flood_status": "Safe",
      "risk_score": 0
    },
    {
      "timestamp": "2025-12-21T08:55:36.388516",
      "location": {
        "lat": 30.1798,
        "lon": 66.975,
        "name": "Quetta"
      },
      "weather": {
        "rainfall_1h": 0,
        "rainfall_3h": 0,
        "humidity": 0,
        "temperature": 0,
        "pressure": 1013,
        "wind_speed": 0,
        "cloud_cover": 0
      },
      "flood_status": "Safe",
      "risk_score": 0
    }
  ],
  "metadata": {
    "created": "2025-12-21T08:54:53.597561",
    "last_updated": "2025-12-21T08:55:36.388527",
    "total_records": 8
  }
}